"id","latitude","longitude","name","docks"
1,"51.529163","-0.109971","River Street , Clerkenwell",19
10,"51.505974","-0.092754","Park Street, Bankside",18
100,"51.490436","-0.122807","Albert Embankment, Vauxhall",24
101,"51.511553","-0.09294","Queen Street 1, Bank",22
102,"51.513407","-0.076793","Jewry Street, Aldgate",17
103,"51.504724","-0.192539","Vicarage Gate, Kensington",17
104,"51.511595","-0.077121","Crosswall, Tower",33
105,"51.51553","-0.190241","Westbourne Grove, Bayswater",26
106,"51.514105","-0.147302","Woodstock Street, Mayfair",21
107,"51.526008","-0.096318","Finsbury Leisure Centre, St. Luke's",20
108,"51.498126","-0.132102","Abbey Orchard Street, Westminster",29
109,"51.515631","-0.132329","Soho Square , Soho",55
11,"51.523951","-0.122502","Brunswick Square, Bloomsbury",24
110,"51.533043","-0.172529","Wellington Road, St. John's Wood",17
111,"51.510017","-0.157276","Park Lane , Hyde Park",27
112,"51.51581","-0.10527","Stonecutter Street, Holborn",20
113,"51.496463","-0.183289","Gloucester Road (Central), South Kensington",19
114,"51.524517","-0.158964","Park Road (Baker Street), The Regent's Park",22
115,"51.514234","-0.073538","Braham Street, Aldgate",33
116,"51.5145","-0.141424","Little Argyll Street, West End",21
117,"51.492881","-0.114934","Lollard Street, Vauxhall",25
118,"51.495827","-0.135478","Rochester Row, Westminster",13
119,"51.525893","-0.090848","Bath Street, St. Luke's",18
12,"51.521681","-0.130432","Malet Street, Bloomsbury",48
120,"51.515735","-0.093081","The Guildhall, Guildhall",17
121,"51.518913","-0.156167","Baker Street, Marylebone",22
122,"51.521114","-0.07887","Norton Folgate, Liverpool Street",23
123,"51.52836","-0.104725","St. John Street, Finsbury",18
124,"51.496545","-0.150905","Eaton Square, Belgravia",20
125,"51.500695","-0.094524","Borough High Street, The Borough",21
126,"51.517821","-0.096497","Museum of London, Barbican",51
127,"51.517008","-0.093885","Wood Street, Guildhall",16
128,"51.495362","-0.185297","Emperor's Gate, South Kensington",22
129,"51.511897","-0.137044","Golden Square, Soho",18
13,"51.519915","-0.13604","Scala Street, Fitzrovia",19
130,"51.509506","-0.075459","Tower Gardens , Tower",22
131,"51.533005","-0.136793","Eversholt Street , Camden Town",16
132,"51.523648","-0.074755","Bethnal Green Road, Shoreditch",38
133,"51.501365","-0.191462","Derry Street, Kensington",17
134,"51.504904","-0.06797","Wapping High Street, Wapping",20
135,"51.52326","-0.104709","Clerkenwell Green, Clerkenwell",21
136,"51.511962","-0.097442","Queen Victoria Street, St. Paul's",31
138,"51.512276","-0.157437","Green Street, Mayfair",19
139,"51.494881","-0.117975","Lambeth Road, Vauxhall",16
14,"51.529944","-0.123617","Belgrove Street , King's Cross",44
140,"51.520963","-0.085634","Finsbury Square , Moorgate",33
141,"51.515308","-0.147204","Chapel Place, Marylebone",28
142,"51.493725","-0.198287","West Cromwell Road, Earl's Court",24
143,"51.496887","-0.161204","Pont Street, Knightsbridge",24
144,"51.48894","-0.111436","Kennington Cross, Kennington",47
145,"51.500744","-0.202759","Ilchester Place, Kensington",24
146,"51.488365","-0.129362","Vauxhall Bridge , Pimlico",33
148,"51.492111","-0.138365","Tachbrook Street, Victoria",16
149,"51.484789","-0.110683","Kennington Road Post Office, Oval",17
15,"51.517727","-0.127854","Great Russell Street, Bloomsbury",26
150,"51.497056","-0.168917","Holy Trinity Brompton, Knightsbridge",27
151,"51.512137","-0.201555","Chepstow Villas, Notting Hill",26
152,"51.49217","-0.101537","Hampton Street, Walworth",21
153,"51.511933","-0.174411","Bayswater Road, Hyde Park",27
154,"51.503792","-0.112824","Waterloo Station 3, Waterloo",29
155,"51.495867","-0.191934","Lexham Gardens, Kensington",19
156,"51.494436","-0.092921","New Kent Road, The Borough",33
157,"51.500398","-0.193068","Wright's Lane, Kensington",37
158,"51.490854","-0.19617","Trebovir Road, Earl's Court",17
159,"51.51462","-0.137841","Great Marlborough Street, Soho",39
16,"51.526358","-0.125979","Cartwright Gardens , Bloomsbury",22
160,"51.506633","-0.131774","Waterloo Place, St. James's",19
161,"51.492346","-0.141334","Guildhouse Street, Victoria",15
162,"51.517607","-0.121328","Southampton Place, Holborn",20
163,"51.493185","-0.167895","Sloane Avenue, Knightsbridge",27
164,"51.515607","-0.183119","Cleveland Gardens, Bayswater",16
165,"51.517932","-0.183717","Orsett Terrace, Bayswater",15
166,"51.501855","-0.159237","Seville Street, Knightsbridge",27
167,"51.493951","-0.147624","Eccleston Place, Victoria",19
168,"51.500401","-0.195456","Argyll Road, Kensington",19
169,"51.514746","-0.165164","Porchester Place, Paddington",18
17,"51.521661","-0.109006","Hatton Wall, Holborn",26
170,"51.527843","-0.108068","Hardwick Street, Clerkenwell",30
171,"51.491616","-0.186754","Collingham Gardens, Earl's Court",14
172,"51.491212","-0.173716","Sumner Place, South Kensington",19
173,"51.50486","-0.113001","Waterloo Road, South Bank",15
174,"51.512529","-0.115163","Strand, Strand",35
175,"51.521668","-0.079609","Worship Street, Shoreditch",51
176,"51.517919","-0.188099","Gloucester Terrace, Bayswater",23
177,"51.496161","-0.140948","Ashley Place, Victoria",24
178,"51.489856","-0.141924","Warwick Square, Pimlico",19
18,"51.514771","-0.12222","Drury Lane, Covent Garden",27
180,"51.512912","-0.153645","North Audley Street, Mayfair",17
181,"51.499412","-0.152318","Belgrave Square, Belgravia",21
182,"51.522029","-0.165843","Bell Street , Marylebone",18
183,"51.482362","-0.136124","Riverlight North, Nine Elms",24
184,"51.520715","-0.145212","Portland Place, Marylebone",34
185,"51.488058","-0.140741","Alderney Street, Pimlico",13
186,"51.517336","-0.175811","South Wharf Road, Paddington",14
187,"51.49248","-0.178433","Queen's Gate (South), South Kensington",25
188,"51.516518","-0.164394","Nutford Place, Marylebone",18
189,"51.531667","-0.109915","Claremont Square, Angel",18
19,"51.525051","-0.131161","Taviton Street, Bloomsbury",30
190,"51.489976","-0.132846","Rampayne Street, Pimlico",20
191,"51.503118","-0.153521","Hyde Park Corner, Hyde Park",36
192,"51.512515","-0.133202","Wardour Street, Soho",16
193,"51.505818","-0.100186","Bankside Mix, Bankside",60
194,"51.504628","-0.091774","Hop Exchange, The Borough",55
195,"51.507244","-0.106238","Milroy Walk, South Bank",29
196,"51.503688","-0.098498","Union Street, The Borough",17
197,"51.505569","-0.111607","Stamford Street, South Bank",27
199,"51.510485","-0.08299","Great Tower Street, Monument",22
2,"51.499607","-0.197574","Phillimore Gardens, Kensington",37
20,"51.527326","-0.136053","Drummond Street , Euston",26
200,"51.514925","-0.066078","LMU Commercial Road, Whitechapel",14
201,"51.522597","-0.161113","Dorset Square, Marylebone",16
202,"51.512364","-0.069542","Leman Street, Aldgate",36
203,"51.518219","-0.100791","West Smithfield Rotunda, Farringdon",15
204,"51.5266","-0.112433","Margery Street, Clerkenwell",18
206,"51.518154","-0.062697","New Road 1 , Whitechapel",36
207,"51.501353","-0.153195","Grosvenor Crescent, Belgravia",18
208,"51.525052","-0.166304","Mallory Street, Marylebone",20
209,"51.493584","-0.165101","Denyer Street, Knightsbridge",30
21,"51.530078","-0.138846","Hampstead Road (Cartmel), Euston",15
210,"51.516814","-0.151926","Hinde Street, Marylebone",21
211,"51.494645","-0.158106","Cadogan Place, Knightsbridge",34
212,"51.506585","-0.199004","Campden Hill Road, Notting Hill",17
213,"51.50274","-0.149569","Wellington Arch, Hyde Park",36
214,"51.526838","-0.130504","Endsleigh Gardens, Euston",32
215,"51.519069","-0.088285","Moorfields, Moorgate",53
216,"51.490946","-0.181191","Old Brompton Road, South Kensington",30
217,"51.516155","-0.082422","Wormwood Street, Liverpool Street",12
218,"51.489717","-0.170194","St. Luke's Church, Chelsea",20
219,"51.490164","-0.190394","Bramham Gardens, Earl's Court",29
22,"51.522264","-0.114079","Northington Street , Holborn",19
220,"51.490665","-0.166485","Chelsea Green, Chelsea",27
221,"51.494816","-0.130459","Horseferry Road, Westminster",13
222,"51.502757","-0.15535","Knightsbridge, Hyde Park",42
223,"51.491485","-0.090221","Rodney Road , Walworth",22
224,"51.51031","-0.187402","Queensway, Kensington Gardens",17
225,"51.509353","-0.196422","Notting Hill Gate Station, Notting Hill",30
226,"51.508446","-0.131961","Charles II Street, West End",24
227,"51.528916","-0.115481","Great Percy Street, Clerkenwell",23
228,"51.507425","-0.134621","St. James's Square, St. James's",39
229,"51.506543","-0.12318","Whitehall Place, Strand",23
23,"51.519435","-0.119123","Red Lion Square, Holborn",16
230,"51.506693","-0.103137","Poured Lines, Bankside",30
231,"51.493968","-0.178732","Queen's Gate (Central), South Kensington",31
232,"51.51501","-0.112753","Carey Street, Holborn",16
233,"51.50777","-0.1307","Pall Mall East, West End",22
234,"51.534504","-0.106993","Liverpool Road (N1 Centre), Angel",24
235,"51.495718","-0.110889","Kennington Road , Vauxhall",36
236,"51.51838","-0.073439","Fashion Street, Whitechapel",30
237,"51.509786","-0.068162","Dock Street, Wapping",26
238,"51.523353","-0.175116","Frampton Street, Paddington",32
239,"51.524438","-0.138019","Warren Street Station, Euston",26
24,"51.51908","-0.124678","British Museum, Bloomsbury",34
240,"51.505459","-0.105692","Colombo Street, Southwark",14
242,"51.522008","-0.151359","Beaumont Street, Marylebone",23
243,"51.490963","-0.139625","Gloucester Street, Pimlico",25
244,"51.516119","-0.128585","Earnshaw Street , Covent Garden",17
245,"51.485357","-0.142207","Grosvenor Road, Pimlico",29
246,"51.522853","-0.099994","Berry Street, Clerkenwell",41
247,"51.530529","-0.167515","St. John's Wood Church, The Regent's Park",50
248,"51.506452","-0.17028","Triangle Car Park, Hyde Park",27
249,"51.498598","-0.096191","Harper Road, The Borough",42
25,"51.528834","-0.13225","Doric Way , Somers Town",48
250,"51.489932","-0.162727","Royal Avenue 1, Chelsea",10
251,"51.518908","-0.079249","Brushfield Street, Liverpool Street",33
252,"51.504636","-0.116542","Jubilee Gardens, South Bank",30
253,"51.534043","-0.08638","Shoreditch Park, Hoxton",29
254,"51.530516","-0.106408","Chadwell Street, Angel",18
255,"51.525575","-0.179593","Clifton Road, Maida Vale",22
256,"51.513621","-0.116764","Houghton Street, Strand",15
257,"51.522482","-0.154907","Westminster University, Marylebone",16
259,"51.490959","-0.153233","Bourne Street, Belgravia",13
26,"51.527281","-0.118295","Ampton Street , Clerkenwell",21
260,"51.513685","-0.135581","Broadwick Street, Soho",18
261,"51.513489","-0.191351","Princes Square, Bayswater",15
262,"51.498745","-0.103133","LSBU (Borough Road), Elephant & Castle",34
263,"51.514225","-0.08066","St. Mary Axe, Aldgate",21
264,"51.526443","-0.109257","Tysoe Street, Clerkenwell",20
265,"51.515953","-0.169249","Southwick Street, Paddington",17
266,"51.501027","-0.180246","Queen's Gate (North), Kensington",40
267,"51.49206","-0.132225","Regency Street, Westminster",22
268,"51.493204","-0.144133","Belgrave Road, Victoria",28
269,"51.500823","-0.089741","Empire Square, The Borough",46
27,"51.513821","-0.107928","Bouverie Street, Temple",33
270,"51.486343","-0.122492","Kennington Lane Rail Bridge, Vauxhall",30
271,"51.535836","-0.156285","London Zoo, The Regent's Park",32
272,"51.501445","-0.110699","Baylis Road, Waterloo",22
273,"51.506133","-0.114686","Belvedere Road 1, South Bank",38
274,"51.496712","-0.205284","Warwick Road, Olympia",36
275,"51.520045","-0.092176","Barbican Centre, Barbican",18
276,"51.509302","-0.084985","Lower Thames Street, Monument",24
277,"51.503157","-0.191496","Kensington Church Street, Kensington",17
278,"51.503494","-0.079621","Tooley Street, Bermondsey",27
279,"51.518622","-0.176646","North Wharf Road, Paddington",25
28,"51.523518","-0.143614","Bolsover Street, Fitzrovia",17
280,"51.490083","-0.162418","Royal Avenue 2, Chelsea",10
281,"51.495806","-0.127575","Smith Square, Westminster",17
282,"51.519064","-0.059642","Royal London Hospital, Whitechapel",41
283,"51.514409","-0.118479","Kingsway, Covent Garden",16
284,"51.499141","-0.112031","Lambeth North Station, Waterloo",20
286,"51.527295","-0.174654","St. John's Wood Road, St. John's Wood",35
287,"51.523673","-0.128378","Bedford Way, Bloomsbury",23
288,"51.49237","-0.147479","Elizabeth Bridge, Victoria",34
289,"51.50923","-0.151296","South Audley Street, Mayfair",14
29,"51.513735","-0.193487","Hereford Road, Bayswater",22
290,"51.518268","-0.171103","St Mary's Hospital, Paddington",20
291,"51.48484","-0.138089","Claverton Street, Pimlico",32
292,"51.498884","-0.165472","Montpelier Street, Knightsbridge",16
293,"51.498158","-0.209494","Kensington Olympia Station, Olympia",25
294,"51.488226","-0.135636","St. George's Square, Pimlico",16
295,"51.500296","-0.092763","Swan Street, The Borough",27
296,"51.493632","-0.190603","Knaresborough Place, Earl's Court",18
297,"51.496128","-0.106001","Geraldine Street, Elephant & Castle",17
298,"51.50228","-0.074189","Curlew Street, Shad Thames",19
299,"51.493985","-0.136929","Vincent Square, Westminster",18
3,"51.521284","-0.084606","Christopher Street, Liverpool Street",31
30,"51.529154","-0.093422","Windsor Terrace, Hoxton",24
300,"51.505014","-0.17306","Serpentine Car Park, Hyde Park",18
301,"51.51476","-0.148105","Marylebone Lane, Marylebone",22
302,"51.466907","-0.216573","Putney Pier, Wandsworth",28
303,"51.502954","-0.158456","Albert Gate, Hyde Park",34
306,"51.518163","-0.135026","Rathbone Street, Fitzrovia",16
307,"51.509908","-0.187843","Black Lion Gate, Kensington Gardens",24
308,"51.499076","-0.085666","Long Lane , Bermondsey",20
309,"51.509631","-0.119048","Embankment (Savoy), Strand",41
31,"51.529537","-0.083353","Fanshaw Street, Hoxton",34
310,"51.490868","-0.116912","Black Prince Road, Vauxhall",19
311,"51.519181","-0.140486","Foley Street, Fitzrovia",24
312,"51.530889","-0.176771","Grove End Road, St. John's Wood",20
313,"51.517344","-0.138073","Wells Street, Fitzrovia",37
314,"51.500889","-0.083159","Tyers Gate, Bermondsey",35
315,"51.525367","-0.153464","The Tennis Courts, The Regent's Park",16
316,"51.497998","-0.142961","Warwick Row, Westminster",21
317,"51.496791","-0.093913","Dickens Square, Borough",31
318,"51.510048","-0.138846","Sackville Street, Mayfair",18
319,"51.527026","-0.088543","Baldwin Street, St. Luke's",20
32,"51.524696","-0.084439","Leonard Circus , Shoreditch",43
320,"51.493574","-0.139956","Queen Mother Sports Centre, Victoria",26
321,"51.497856","-0.081608","Bermondsey Street, Bermondsey",24
322,"51.526293","-0.073955","Palissy Street, Shoreditch",26
323,"51.523196","-0.083067","Clifton Street, Shoreditch",23
324,"51.49652","-0.101384","Ontario Street, Elephant & Castle",14
325,"51.509087","-0.129698","St. Martin's Street, West End",18
326,"51.532662","-0.099981","Graham Street, Angel",26
327,"51.53095","-0.085603","New North Road 1, Hoxton",22
328,"51.53114","-0.086016","New North Road 2, Hoxton",22
329,"51.535893","-0.160854","Prince Albert Road, The Regent's Park",24
33,"51.5156","-0.070056","Central House, Aldgate",18
330,"51.516417","-0.179135","Eastbourne Mews, Paddington",34
331,"51.520859","-0.089888","Bunhill Row, Moorgate",30
332,"51.493343","-0.194758","Nevern Place, Earl's Court",20
333,"51.508605","-0.193764","Palace Gardens Terrace, Notting Hill",37
334,"51.505044","-0.115851","Concert Hall Approach 1, South Bank",10
335,"51.511968","-0.120719","Tavistock Street, Covent Garden",32
336,"51.504942","-0.115533","Concert Hall Approach 2, South Bank",18
337,"51.511085","-0.197525","Pembridge Villas, Notting Hill",16
338,"51.511756","-0.119643","Wellington Street , Strand",24
339,"51.53332","-0.111781","Risinghill Street, Angel",25
34,"51.534124","-0.129387","Pancras Road, King's Cross",16
340,"51.514441","-0.087587","Bank of England Museum, Bank",16
341,"51.508103","-0.126021","Craven Street, Strand",21
343,"51.536922","-0.150181","London Zoo Car Park, The Regent's Park",36
344,"51.528246","-0.101026","Goswell Road (City Uni), Finsbury",17
345,"51.488024","-0.166879","Flood Street, Chelsea",33
347,"51.500139","-0.113936","Lower Marsh, Waterloo",15
348,"51.51217","-0.150481","Grosvenor Square, Mayfair",16
349,"51.51196","-0.142783","St. George Street, Mayfair",18
350,"51.501715","-0.179854","Queen's Gate, Kensington Gardens",20
351,"51.529423","-0.097122","Macclesfield Rd, St Lukes",28
352,"51.486965","-0.116625","Vauxhall Street, Vauxhall",17
353,"51.494591","-0.134234","Greycoat Street , Westminster",17
354,"51.506767","-0.123702","Northumberland Avenue, Strand",35
356,"51.494412","-0.173881","South Kensington Station, South Kensington",15
357,"51.520994","-0.139016","Howland Street, Fitzrovia",30
358,"51.516226","-0.124826","High Holborn , Covent Garden",20
359,"51.49783","-0.135441","Butler Place, Westminster",18
36,"51.501737","-0.184981","De Vere Gardens, Kensington",28
360,"51.496753","-0.138734","Howick Place, Westminster",27
361,"51.50392","-0.113426","Waterloo Station 2, Waterloo",55
362,"51.536264","-0.133952","Royal College Street, Camden Town",55
363,"51.529121","-0.171185","Lord's, St. John's Wood",24
364,"51.519656","-0.132339","Alfred Place, Bloomsbury",41
365,"51.530344","-0.100168","City Road, Angel",47
366,"51.510919","-0.151126","Millennium Hotel, Mayfair",27
367,"51.517372","-0.164208","Harrowby Street, Marylebone",16
368,"51.500242","-0.159341","Harriet Street, Knightsbridge",25
37,"51.491594","-0.192369","Penywern Road, Earl's Court",17
370,"51.520205","-0.174593","Paddington Green, Paddington",19
371,"51.49775","-0.10988","King Edward Walk, Waterloo",22
372,"51.515208","-0.117863","Sardinia Street, Holborn",24
373,"51.499807","-0.176416","Prince Consort Road, Knightsbridge",18
374,"51.504028","-0.113864","Waterloo Station 1, Waterloo",34
375,"51.501946","-0.194393","Kensington Town Hall, Kensington",18
376,"51.491884","-0.125675","Millbank Tower, Pimlico",24
377,"51.505354","-0.113657","Waterloo Bridge, South Bank",15
378,"51.495593","-0.179078","Natural History Museum, South Kensington",42
379,"51.514312","-0.200838","Turquoise Island, Notting Hill",21
38,"51.497388","-0.197246","Abingdon Villas, Kensington",17
380,"51.506864","-0.150667","Stanhope Gate, Mayfair",21
381,"51.51953","-0.135777","Charlotte Street, Fitzrovia",14
382,"51.509352","-0.14745","Farm Street, Mayfair",15
383,"51.513103","-0.131214","Frith Street, Soho",18
384,"51.496481","-0.192404","Marloes Road, Kensington",15
386,"51.513528","-0.130111","Moor Street, Soho",16
387,"51.4937","-0.121394","Fire Brigade Pier, Vauxhall",29
388,"51.510702","-0.121724","Southampton Street, Strand",14
389,"51.510131","-0.155758","Upper Grosvenor Street, Mayfair",18
39,"51.526378","-0.078131","Shoreditch High Street, Shoreditch",41
390,"51.521776","-0.068856","Buxton Street 1, Shoreditch",40
392,"51.499429","-0.179702","Imperial College, Knightsbridge",21
393,"51.517334","-0.103604","Snow Hill, Farringdon",12
394,"51.524826","-0.176268","Aberdeen Place, St. John's Wood",18
395,"51.492462","-0.159919","Cadogan Gardens, Chelsea",15
396,"51.51809","-0.163609","Shouldham Street, Marylebone",15
397,"51.51348","-0.17977","Devonshire Terrace, Bayswater",16
398,"51.502319","-0.200742","Holland Park, Kensington",30
399,"51.522618","-0.071654","Brick Lane Market, Shoreditch",24
4,"51.530059","-0.120974","St. Chad's Street, King's Cross",23
40,"51.521271","-0.075579","Commercial Street, Shoreditch",15
400,"51.517703","-0.154106","George Street, Marylebone",26
401,"51.528187","-0.075375","Columbia Road, Shoreditch",23
402,"51.522892","-0.171682","Penfold Street, Marylebone",15
403,"51.516893","-0.15825","George Place Mews, Marylebone",16
404,"51.502042","-0.1844","Palace Gate, Kensington Gardens",12
405,"51.494186","-0.182671","Gloucester Road Station, South Kensington",15
408,"51.519943","-0.170704","Paddington Green Police Station, Paddington",40
409,"51.493146","-0.099828","Strata, Elephant & Castle",39
41,"51.520955","-0.083494","Pindar Street, Liverpool Street",24
410,"51.519968","-0.169774","Edgware Road Station, Marylebone",64
411,"51.493373","-0.099681","Walworth Road, Elephant & Castle",33
412,"51.488105","-0.110121","Cleaver Street, Kennington",17
419,"51.485821","-0.149004","Chelsea Bridge, Pimlico",15
42,"51.530992","-0.093904","Wenlock Road , Hoxton",28
420,"51.504043","-0.105312","Southwark Station 1, Southwark",28
421,"51.504044","-0.104778","Southwark Station 2, Southwark",43
423,"51.494561","-0.153934","Eaton Square (South), Belgravia",30
424,"51.490491","-0.149186","Ebury Bridge, Pimlico",29
425,"51.533379","-0.139159","Harrington Square 2, Camden Town",38
426,"51.493072","-0.129925","Vincent Street, Pimlico",17
427,"51.513971","-0.09294","Cheapside, Bank",43
428,"51.499917","-0.174554","Exhibition Road, Knightsbridge",18
43,"51.52026","-0.157184","Crawford Street, Marylebone",18
430,"51.48902","-0.17524","South Parade, Chelsea",18
431,"51.534474","-0.122203","Crinan Street, King's Cross",20
432,"51.496957","-0.173894","Exhibition Road Museums, South Kensington",22
433,"51.524564","-0.116279","Wren Street, Holborn",33
435,"51.488852","-0.105593","Kennington Station, Kennington",21
436,"51.51824","-0.11655","Red Lion Street, Holborn",35
437,"51.488124","-0.120903","Vauxhall Walk, Vauxhall",26
439,"51.5338","-0.118677","Killick Street, King's Cross",22
44,"51.510737","-0.144165","Bruton Street, Mayfair",21
440,"51.483145","-0.113134","Kennington Oval, Oval",33
441,"51.495656","-0.114605","Sail Street, Vauxhall",24
442,"51.510101","-0.211358","Walmer Road, Avondale",24
443,"51.515256","-0.058641","Philpot Street, Whitechapel",30
444,"51.52568","-0.055312","Bethnal Green Garden, Bethnal Green",23
445,"51.52388","-0.065076","Cheshire Street, Bethnal Green",28
446,"51.528936","-0.055894","York Hall, Bethnal Green",26
447,"51.493381","-0.007542","Jubilee Crescent, Cubitt Town",54
448,"51.50623","-0.02296","Fisherman's Walk West, Canary Wharf",36
449,"51.511088","-0.057159","Shadwell Station, Shadwell",34
45,"51.522511","-0.162298","Boston Place, Marylebone",26
450,"51.515975","-0.053177","Jubilee Street, Stepney",28
451,"51.504719","-0.063531","Hermitage Court, Wapping",16
452,"51.505697","-0.070542","St. Katharine's Way, Tower",24
453,"51.508447","-0.055167","Garnet Street, Shadwell",24
454,"51.487679","-0.021582","Napier Avenue, Millwall",19
455,"51.49447","-0.014409","East Ferry Road, Cubitt Town",17
456,"51.538071","-0.144664","Parkway, Camden Town",33
457,"51.542138","-0.145393","Castlehaven Road, Camden Town",29
458,"51.504749","-0.057544","Wapping Lane, Wapping",28
459,"51.535179","-0.03338","Gunmakers Lane, Old Ford",17
46,"51.507131","-0.06691","Nesham Street, Wapping",15
460,"51.516196","-0.029138","Burdett Road, Mile End",32
461,"51.516","-0.038775","Aston Street, Stepney",26
462,"51.541603","-0.138853","Bonny Street, Camden Town",44
463,"51.534776","-0.071881","Thurtle Road, Haggerston",22
464,"51.51417","-0.052099","St. Mary & St. Michael Church, Stepney",24
465,"51.53558","-0.08249","Pitfield Street North,Hoxton",27
466,"51.534464","-0.076341","Whiston Road, Haggerston",21
467,"51.523538","-0.030556","Southern Grove, Bow",17
468,"51.521564","-0.022694","Cantrell Road, Bow",24
469,"51.513757","-0.020467","Lindfield Street, Poplar",44
47,"51.523345","-0.183846","Warwick Avenue Station, Maida Vale",19
470,"51.530535","-0.025492","Mostyn Grove, Bow",46
471,"51.533283","-0.028155","Hewison Street, Old Ford",19
472,"51.529452","-0.027616","Malmesbury Road, Bow",10
473,"51.496137","-0.019355","Millharbour, Millwall",19
475,"51.499041","-0.020157","Lightermans Road, Millwall",31
476,"51.489096","-0.009205","Stebondale Street, Cubitt Town",28
477,"51.49109","-0.018716","Spindrift Avenue, Millwall",36
478,"51.521889","-0.04667","Stepney Green Station, Stepney",20
479,"51.527152","-0.058005","Pott Street, Bethnal Green",19
48,"51.512484","-0.099141","Godliman Street, St. Paul's",25
480,"51.512871","-0.038987","Flamborough Street, Limehouse",25
481,"51.487129","-0.009001","Saunders Ness Road, Cubitt Town",34
483,"51.51328","-0.047784","Albert Gardens, Stepney",32
484,"51.528828","-0.013258","Bromley High Street, Bow",23
485,"51.531127","-0.048017","Old Ford Road, Bethnal Green",24
486,"51.525645","-0.069543","Granby Street, Shoreditch",37
487,"51.511811","-0.025626","Canton Street, Poplar",23
488,"51.506946","-0.058681","Reardon Street, Wapping",22
489,"51.513074","-0.064094","Christian Street, Whitechapel",34
49,"51.507069","-0.145904","Curzon Street, Mayfair",15
490,"51.508622","-0.065006","Pennington Street, Wapping",45
491,"51.522507","-0.041378","Queen Mary's, Mile End",45
492,"51.525501","-0.032267","Maplin Street, Mile End",39
494,"51.50196","-0.016251","South Quay East, Canary Wharf",36
495,"51.528169","-0.018703","Bow Church Station, Bow",36
496,"51.52512","-0.015578","Devons Road, Bow",38
497,"51.526149","-0.027397","Merchant Street, Bow",26
498,"51.527058","-0.025296","Bow Road Station, Bow",41
499,"51.519265","-0.021345","Furze Green, Bow",36
5,"51.49313","-0.156876","Sedding Street, Sloane Square",27
50,"51.528673","-0.087459","East Road, Hoxton",27
500,"51.519806","-0.055731","Ansell House, Stepney",41
501,"51.522561","-0.054883","Cephas Street, Bethnal Green",23
502,"51.53341","-0.049592","Bonner Gate, Victoria Park",20
503,"51.520893","-0.051394","Cleveland Way, Stepney",36
504,"51.496454","-0.009506","St. John's Park, Cubitt Town",30
505,"51.520398","-0.026768","Ackroyd Drive, Bow",29
506,"51.517475","-0.075855","Bell Lane, Liverpool Street",23
507,"51.528692","-0.059091","Clarkson Street, Bethnal Green",30
508,"51.519362","-0.074431","Fournier Street, Whitechapel",18
509,"51.517842","-0.090075","Fore Street, Guildhall",19
51,"51.526718","-0.104298","Finsbury Library , Finsbury",29
510,"51.509303","-0.025996","Westferry DLR, Limehouse",39
511,"51.511066","-0.053558","Sutton Street, Shadwell",32
512,"51.532091","-0.06142","Pritchard's Road, Bethnal Green",30
513,"51.514223","-0.055656","Watney Market, Stepney",50
514,"51.516204","-0.155525","Portman Square, Marylebone",17
515,"51.500088","-0.211316","Russell Gardens, Olympia",24
516,"51.5112","-0.014438","Chrisp Street Market, Poplar",18
518,"51.528224","-0.037471","Antill Road, Mile End",29
519,"51.518811","-0.011662","Teviot Street, Poplar",33
52,"51.522954","-0.094935","Roscoe Street, St. Luke's",17
520,"51.526041","-0.047218","Bancroft Road, Bethnal Green",21
521,"51.534137","-0.037366","Driffield Road, Old Ford",19
522,"51.525941","-0.036017","Clinton Road, Mile End",35
523,"51.51549","-0.013475","Langdon Park, Poplar",24
524,"51.511654","-0.179668","Lancaster Gate , Bayswater",38
526,"51.503143","-0.008428","Lancaster Drive, Blackwall",27
527,"51.503802","-0.215808","Hansard Mews, Holland Park",20
528,"51.507326","-0.145827","Clarges Street, Mayfair",16
529,"51.486892","-0.170983","Manresa Road, Chelsea",17
53,"51.509992","-0.143495","Grafton Street, Mayfair",18
530,"51.508896","-0.012413","Newby Place, Poplar",16
531,"51.530326","-0.042744","Twig Folly Bridge, Mile End",21
532,"51.50357","-0.020068","Jubilee Plaza, Canary Wharf",63
533,"51.528222","-0.069743","Wellington Row, Bethnal Green",33
534,"51.531864","-0.066035","Goldsmith's Row, Haggerston",26
535,"51.537349","-0.147154","Gloucester Avenue, Camden Town",24
536,"51.53385","-0.06992","Queensbridge Road, Haggerston",35
537,"51.51793","-0.067937","Old Montague Street, Whitechapel",18
538,"51.508981","-0.00699","Naval Row, Blackwall",21
54,"51.521748","-0.094475","Golden Lane, Barbican",27
540,"51.528302","-0.144466","Albany Street, The Regent's Park",27
541,"51.506613","-0.142844","Green Park Station, Mayfair",27
542,"51.514115","-0.033828","Salmon Lane, Limehouse",32
543,"51.509591","-0.204666","Lansdowne Walk, Ladbroke Grove",21
544,"51.526153","-0.102208","Percival Street, Finsbury",22
545,"51.539957","-0.145246","Arlington Road, Camden Town",20
546,"51.517428","-0.107987","New Fetter Lane, Holborn",21
547,"51.509474","-0.002275","East India DLR, Blackwall",51
548,"51.498386","-0.107913","Westminster Bridge Road, Elephant & Castle",26
549,"51.49605","-0.104193","Gaywood Street, Elephant & Castle",43
55,"51.517075","-0.086686","Finsbury Circus, Liverpool Street",33
550,"51.521564","-0.039264","Harford Street, Mile End",22
551,"51.505772","-0.01646","Import Dock, Canary Wharf",37
552,"51.511542","-0.056667","Watney Street, Shadwell",27
553,"51.535678","-0.062546","Regent's Row , Haggerston",24
554,"51.513548","-0.005659","Aberfeldy Street, Poplar",16
556,"51.502661","-0.021596","Heron Quays DLR, Canary Wharf",26
557,"51.51601","-0.0985","King Edward Street, St Pauls",20
558,"51.493978","-0.127554","Page Street, Westminster",24
559,"51.501391","-0.205991","Abbotsbury Road, Holland Park",24
56,"51.520584","-0.154701","Paddington Street, Marylebone",16
560,"51.511624","-0.205921","Ladbroke Grove Central, Ladbroke Grove",21
561,"51.518369","-0.043371","Rectory Square, Stepney",21
562,"51.51746","-0.12335","Bury Place, Holborn",21
563,"51.499286","-0.009152","Preston's Road, Cubitt Town",26
564,"51.509943","-0.117619","Somerset House, Strand",40
565,"51.521905","-0.063386","Selby Street, Whitechapel",17
566,"51.509158","-0.224103","Westfield Ariel Way, White City",42
568,"51.51616","-0.18697","Bishop's Bridge Road West, Bayswater",18
569,"51.53213","-0.08299","Pitfield Street Central, Hoxton",29
57,"51.523347","-0.120203","Guilford Street , Bloomsbury",32
570,"51.503083","-0.017676","Upper Bank Street, Canary Wharf",35
571,"51.506256","-0.218337","Westfield Southern Terrace ,Shepherd's Bush",29
572,"51.539099","-0.141728","Greenland Road, Camden Town",36
573,"51.485587","-0.18119","Limerston Street, West Chelsea",17
574,"51.53356","-0.09315","Eagle Wharf Road, Hoxton",44
576,"51.497304","-0.022793","Alpha Grove, Millwall",23
577,"51.528869","-0.047548","Globe Town Market, Bethnal Green",20
578,"51.527607","-0.057133","Hollybush Gardens, Bethnal Green",31
579,"51.511246","-0.093051","Queen Street 2, Bank",34
58,"51.524527","-0.079248","New Inn Yard, Shoreditch",20
580,"51.486929","-0.102996","Doddington Grove, Kennington",36
581,"51.519167","-0.147983","New Cavendish Street, Marylebone",18
583,"51.497622","-0.125978","Abingdon Green, Westminster",20
584,"51.51244","-0.19096","Ilchester Gardens, Bayswater",21
586,"51.490645","-0.014582","Mudchute DLR, Cubitt Town",31
587,"51.50964","-0.08497","Monument Street, Monument",21
588,"51.52959","-0.0801","Hoxton Street, Hoxton",27
589,"51.487196","-0.179369","Drayton Gardens, West Chelsea",17
590,"51.53256","-0.16862","Greenberry Street, St.John's Wood",26
592,"51.5171","-0.18377","Bishop's Bridge Road East, Bayswater",20
593,"51.531066","-0.11934","Northdown Street, King's Cross",21
594,"51.513875","-0.117774","Kingsway Southbound, Strand",33
595,"51.493267","-0.21985","Hammersmith Road, Hammersmith",20
596,"51.472817","-0.199783","Parson's Green , Parson's Green",21
597,"51.473471","-0.20782","Fulham Park Road, Fulham",27
598,"51.494499","-0.228188","Southerton Road, Hammersmith",37
599,"51.485743","-0.223616","Manbre Road, Hammersmith",28
6,"51.518118","-0.144229","Broadcasting House, Marylebone",18
60,"51.526448","-0.172191","Lisson Grove, St. John's Wood",18
600,"51.481747","-0.124642","South Lambeth Road, Vauxhall",21
601,"51.514767","-0.225787","BBC White City, White City",36
602,"51.472993","-0.133972","Union Grove, Wandsworth Road",44
603,"51.477839","-0.116493","Caldwell Street, Stockwell",43
604,"51.538792","-0.138535","St Martins Close, Camden Town",18
605,"51.520331","-0.163667","Seymour Place, Marylebone",29
606,"51.504199","-0.210941","Addison Road, Holland Park",25
607,"51.468814","-0.210279","Putney Bridge Station, Fulham",21
608,"51.491093","-0.216493","Colet Gardens, Hammersmith",30
609,"51.465124","-0.157788","Sugden Road, Clapham",19
61,"51.497383","-0.089447","Great Dover Street, The Borough",32
610,"51.482568","-0.172078","Danvers Street, West Chelsea",21
611,"51.506465","-0.208487","Princedale Road , Holland Park",19
612,"51.46926","-0.141813","Wandsworth Rd, Isley Court, Wandsworth Road",29
613,"51.504038","-0.2174","Woodstock Grove, Shepherd's Bush",24
614,"51.478172","-0.144691","Bradmead, Battersea Park",40
615,"51.476885","-0.215896","Finlay Street, Fulham",24
616,"51.481021","-0.209973","Aintree Street, Fulham",24
617,"51.471079","-0.207843","Elysium Place, Fulham",21
618,"51.47626","-0.193254","Eel Brook Common, Walham Green",23
619,"51.473764","-0.19701","Irene Road, Parsons Green",43
62,"51.490758","-0.106324","Cotton Garden Estate, Kennington",23
620,"51.47518","-0.167161","Surrey Lane, Battersea",28
621,"51.460864","-0.187427","Wandsworth Town Station, Wandsworth",33
622,"51.507481","-0.205536","Lansdowne Road, Ladbroke Grove",29
623,"51.461931","-0.180792","Nantes Close, Wandsworth",21
624,"51.472918","-0.132103","Courland Grove, Wandsworth Road",40
625,"51.477619","-0.149552","Queen's Circus, Battersea Park",27
626,"51.484387","-0.204815","Normand Park, West Kensington",24
627,"51.468791","-0.158231","Holden Street, Battersea",20
628,"51.46882","-0.184319","William Morris Way, Sands End",26
629,"51.459954","-0.190184","Morie Street, Wandsworth",28
63,"51.53089","-0.089783","Murray Grove , Hoxton",27
630,"51.470733","-0.126994","Clarence Walk, Stockwell",28
631,"51.479502","-0.141771","Battersea Park Road, Nine Elms",23
632,"51.470539","-0.163042","Sheepcote Lane, Battersea",27
633,"51.489591","-0.209379","Vereker Road, West Kensington",31
634,"51.494347","-0.215805","Brook Green South, Brook Green",33
635,"51.486062","-0.214428","Greyhound Road, Hammersmith",37
636,"51.467064","-0.193502","South Park, Sands End",28
637,"51.45787","-0.174692","Spencer Park, Wandsworth Common",25
638,"51.466634","-0.169821","Falcon Road, Clapham Junction",28
639,"51.483571","-0.202039","Coomer Place, West Kensington",25
64,"51.509462","-0.124749","William IV Street, Strand",26
640,"51.472866","-0.148059","Silverthorne Road, Battersea",27
641,"51.498242","-0.117496","Archbishop's Park, Waterloo",23
642,"51.469162","-0.174486","Fawcett Close, Battersea",36
643,"51.519043","-0.204764","All Saints' Road, Portobello",22
644,"51.483732","-0.223852","Rainville Road, Hammersmith",36
645,"51.501732","-0.100292","Great Suffolk Street, The Borough",21
646,"51.498866","-0.137425","Buckingham Gate, Westminster",16
647,"51.500353","-0.217515","Richmond Way, Shepherd's Bush",27
648,"51.46904","-0.196275","Peterborough Road, Sands End",30
649,"51.481805","-0.180275","World's End Place, West Chelsea",22
65,"51.525228","-0.135189","Gower Place , Euston",16
650,"51.516871","-0.213872","St. Mark's Road, North Kensington",23
651,"51.480898","-0.183854","Thorndike Close, West Chelsea",23
652,"51.511487","-0.21819","Evesham Street, Avondale",28
653,"51.470847","-0.170704","Simpson Street, Clapham Junction",25
654,"51.482678","-0.117662","Ashmole Estate, Oval",34
655,"51.482945","-0.219346","Crabtree Lane, Fulham",27
656,"51.468419","-0.199136","Broomhouse Lane, Parsons Green",29
657,"51.499681","-0.221792","Blythe Road West, Shepherd's Bush",21
658,"51.477292","-0.164786","Ethelburga Estate, Battersea Park",30
659,"51.511934","-0.103079","Blackfriars Station, St. Paul's",34
66,"51.51795","-0.108657","Holborn Circus, Holborn",39
660,"51.490871","-0.20603","West Kensington Station, West Kensington",22
661,"51.516321","-0.202609","All Saints Church, Portobello",36
662,"51.484985","-0.16792","Phene Street, Chelsea",24
663,"51.51323","-0.211594","Clarendon Road, Avondale",24
664,"51.474376","-0.155443","Austin Road, Battersea Park",23
665,"51.461084","-0.191723","Smugglers Way, Wandsworth",28
666,"51.496101","-0.208158","Olympia Way, Olympia",38
667,"51.501595","-0.222293","Shepherd's Bush Road North, Shepherd's Bush",33
668,"51.494224","-0.23677","Ravenscourt Park Station, Hammersmith",22
669,"51.476149","-0.123259","Teversham Lane, Stockwell",39
67,"51.518826","-0.108028","Hatton Garden, Holborn",28
670,"51.467186","-0.152249","Ashley Crescent, Battersea",28
671,"51.475089","-0.201968","Parsons Green Station, Parsons Green",56
673,"51.465171","-0.180389","Hibbert Street, Battersea",36
674,"51.535468","-0.116191","Carnegie Street, King's Cross",40
675,"51.463489","-0.182126","Usk Road, Clapham Junction",30
676,"51.477871","-0.126874","Hartington Road, Stockwell",35
677,"51.468669","-0.146545","Heath Road, Battersea",26
678,"51.462313","-0.211469","Esmond Street, Putney",30
679,"51.474535","-0.170211","Orbel Street, Battersea",25
68,"51.520597","-0.116688","Theobald's Road , Holborn",26
680,"51.477685","-0.170329","Westbridge Road, Battersea",26
681,"51.473037","-0.21475","Bishop's Avenue, Fulham",46
682,"51.488108","-0.226606","Crisp Road, Hammersmith",46
683,"51.465064","-0.163751","Dorothy Road, Clapham Junction",27
684,"51.454753","-0.195197","Neville Gill Close, Wandsworth",31
685,"51.46067","-0.198735","Osiers Road, Wandsworth",30
686,"51.488144","-0.222456","Beryl Road, Hammersmith",26
687,"51.497608","-0.211456","Maclise Road, Olympia",26
688,"51.460952","-0.200668","Northfields, Wandsworth",28
689,"51.459225","-0.180885","Spanish Road, Clapham Junction",30
69,"51.526236","-0.134408","Euston Road, Euston",24
690,"51.470475","-0.15213","Stanley Grove, Battersea",24
691,"51.479464","-0.195777","Erin Close, Walham Green",23
692,"51.542119","-0.028942","Cadogan Close, Victoria Park",22
693,"51.464786","-0.215619","Felsham Road, Putney",18
694,"51.460717","-0.216526","Putney Rail Station, Putney",20
695,"51.536384","-0.102758","Islington Green, Angel",20
696,"51.487285","-0.217996","Charing Cross Hospital, Hammersmith",21
697,"51.536392","-0.112721","Charlotte Terrace, Angel",24
698,"51.539084","-0.070329","Shoreditch Court, Haggerston",35
699,"51.536654","-0.07023","Belford House, Haggerston",39
7,"51.5343","-0.168074","Charlbert Street, St. John's Wood",16
70,"51.531361","-0.11707","Calshot Street , King's Cross",24
700,"51.476965","-0.174347","Battersea Church Road, Battersea",24
701,"51.472876","-0.176267","Vicarage Crescent, Battersea",27
702,"51.528682","-0.06555","Durant Street, Bethnal Green",24
703,"51.51506","-0.105344","St. Bride Street, Holborn",24
704,"51.456821","-0.202802","Mexfield Road, East Putney",18
705,"51.459715","-0.212146","Upper Richmond Road, Putney",25
706,"51.502154","-0.083633","Snowsfields, London Bridge",31
707,"51.490218","-0.215087","Barons Court Station, West Kensington",31
708,"51.461611","-0.216146","Disraeli Road, Putney",33
709,"51.463211","-0.215551","Montserrat Road , Putney",23
71,"51.515419","-0.098851","Newgate Street , St. Paul's",32
710,"51.474392","-0.163348","Albert Bridge Road, Battersea Park",18
711,"51.483357","-0.216306","Everington Street, Fulham",31
712,"51.518541","-0.034904","Mile End Stadium, Mile End",22
713,"51.541007","-0.143261","Hawley Crescent, Camden Town",22
714,"51.473117","-0.137235","Stewart's Road, Wandsworth Road",28
715,"51.51563","-0.049067","Aylward Street, Stepney",21
716,"51.515428","-0.023565","Stainsby Road , Poplar",24
717,"51.536585","-0.075886","Dunston Road , Haggerston",42
718,"51.535717","-0.060292","Ada Street, Hackney Central",45
719,"51.536425","-0.054162","Victoria Park Road, Hackney Central",34
72,"51.52352","-0.10834","Farringdon Lane, Clerkenwell",16
720,"51.487244","-0.205279","Star Road, West Kensington",22
721,"51.536039","-0.026263","Wendon Street, Old Ford",17
722,"51.524584","-0.058631","Finnis Street, Bethnal Green",19
723,"51.46822","-0.190346","Stephendale Road, Sands End",48
724,"51.457991","-0.184806","Alma Road, Wandsworth",28
725,"51.491327","-0.096519","Walworth Square, Walworth",24
726,"51.475051","-0.150908","Alfreda Street, Battersea Park",22
727,"51.475698","-0.205876","Chesilton Road, Fulham",23
728,"51.461999","-0.206241","Putney Bridge Road, East Putney",29
729,"51.478939","-0.208485","St. Peter's Terrace, Fulham",24
73,"51.525726","-0.088486","Old Street Station, St. Luke's",37
730,"51.492085","-0.229117","Bridge Avenue, Hammersmith",17
731,"51.477276","-0.18921","Michael Road, Walham Green",37
732,"51.506304","-0.087263","Duke Street Hill, London Bridge",18
733,"51.505426","-0.150817","Park Lane, Mayfair",18
734,"51.462306","-0.175407","Plough Terrace, Clapham Junction",31
735,"51.464894","-0.173029","Grant Road East, Clapham Junction",28
736,"51.50659","-0.216104","Queensdale Road, Shepherd's Bush",28
737,"51.479933","-0.194117","Fulham Broadway, Walham Green",26
738,"51.475142","-0.187279","Imperial Road, Sands End",37
739,"51.481766","-0.185274","Hortensia Road, West Brompton",28
74,"51.485917","-0.12447","Vauxhall Cross, Vauxhall",11
740,"51.510929","-0.214595","Sirdar Road, Avondale",26
741,"51.512981","-0.219487","Freston Road, Avondale",23
742,"51.515108","-0.208565","Blenheim Crescent, Ladbroke Grove",22
743,"51.460792","-0.212608","Oxford Road, Putney",29
744,"51.467455","-0.172293","Ingrave Street, Clapham Junction",30
745,"51.47817","-0.182435","Upcerne Road, West Chelsea",29
746,"51.479574","-0.179039","Lots Road, West Chelsea",24
747,"51.487964","-0.161765","Ormonde Gate, Chelsea",22
748,"51.537278","-0.079202","Hertford Road, De Beauvoir Town",24
749,"51.539329","-0.074285","Haggerston Road, Haggerston",37
75,"51.5322","-0.105481","Torrens Street, Angel",19
750,"51.471096","-0.15785","Culvert Road, Battersea",26
751,"51.516129","-0.120909","Newton Street, Covent Garden",22
754,"51.512901","-0.214763","Grenfell Road, Avondale",24
755,"51.485122","-0.174972","The Vale, Chelsea",24
756,"51.475154","-0.15917","Prince of Wales Drive, Battersea Park",21
757,"51.487959","-0.187405","Harcourt Terrace, West Brompton",24
758,"51.51787","-0.201005","Westbourne Park Road, Portobello",23
759,"51.524562","-0.165669","Broadley Terrace, Marylebone",18
76,"51.525595","-0.144084","Longford Street, The Regent's Park",21
760,"51.52527","-0.163795","Rossmore Road, Marylebone",18
761,"51.483217","-0.211861","Humbolt Road, Fulham",26
762,"51.500703","-0.129699","Storey's Gate, Westminster",21
763,"51.520597","-0.032567","Mile End Park Leisure Centre, Mile End",46
764,"51.462393","-0.168292","St. John's Road, Clapham Junction",33
765,"51.467601","-0.206827","Ranelagh Gardens, Fulham",39
766,"51.457529","-0.192166","Ram Street, Wandsworth",23
767,"51.45706","-0.200806","Santos Road, Wandsworth",30
768,"51.461344","-0.159322","Clapham Common North Side, Clapham Common",37
769,"51.473611","-0.191803","Sandilands Road, Walham Green",21
77,"51.523418","-0.124122","Russell Square Station, Bloomsbury",26
770,"51.491026","-0.209121","Gwendwr Road, West Kensington",30
771,"51.509224","-0.216016","Rifle Place, Avondale",21
772,"51.47251","-0.122832","Binfield Road, Stockwell",35
773,"51.511891","-0.107349","Tallis Street, Temple",21
774,"51.470131","-0.20464","Hurlingham Park, Parsons Green",20
775,"51.496664","-0.223868","Little Brook Green, Brook Green",33
776,"51.460333","-0.167029","Abyssinia Close, Clapham Junction",19
777,"51.461923","-0.165298","Limburg Road, Clapham Junction",21
779,"51.514449","-0.077179","Houndsditch, Aldgate",28
78,"51.524869","-0.099489","Sadlers Sports Centre, Finsbury",17
780,"51.474665","-0.183165","Imperial Wharf Station, Sands End",25
781,"51.495898","-0.173009","Victoria & Albert Museum, South Kensington",28
782,"51.483911","-0.197609","Halford Road, West Kensington",23
783,"51.540312","-0.02163","Monier Road, Hackney Wick",26
784,"51.546326","-0.009935","East Village, Queen Elizabeth Olympic Park",33
785,"51.54094","-0.010511","Aquatic Centre, Queen Elizabeth Olympic Park",62
786,"51.549369","-0.015718","Lee Valley VeloPark, Queen Elizabeth Olympic Park",43
787,"51.546805","-0.014691","Timber Lodge, Queen Elizabeth Olympic Park",35
789,"51.538718","-0.011889","Podium, Queen Elizabeth Olympic Park",40
79,"51.511726","-0.113856","Arundel Street, Temple",18
790,"51.541793","-0.00481","Stratford Station, Stratford",27
792,"51.505461","-0.104541","Blackfriars Road, Southwark",42
793,"51.528279","-0.119559","Cromer Street, Bloomsbury",28
795,"51.527068","-0.131861","Euston Square Gardens, Euston",30
796,"51.524","-0.12641","Coram Street, Bloomsbury",29
797,"51.5293","-0.128279","Ossulston Street, Somers Town",30
798,"51.5302","-0.122299","Birkenhead Street, King's Cross",27
799,"51.497698","-0.137599","Kings Gate House, Westminster",24
8,"51.529857","-0.183486","Maida Vale, Maida Vale",38
80,"51.500694","-0.102091","Webber Street , Southwark",45
800,"51.481122","-0.149035","Sopwith Way, Battersea Park",30
801,"51.505224","-0.098032","Lavington Street, Bankside",29
802,"51.47659","-0.118257","Albert Square, Stockwell",32
803,"51.50541","-0.098341","Southwark Street, Bankside",23
804,"51.534668","-0.125079","Good's Way, King's Cross",26
806,"51.537241","-0.124807","Handyside Street, King's Cross",27
807,"51.5212","-0.208888","Bevington Road West, North Kensington",24
809,"51.516278","-0.118273","Lincoln's Inn Fields, Holborn",28
81,"51.520253","-0.141327","Great Titchfield Street, Fitzrovia",19
810,"51.506725","-0.098807","Tate Modern, Bankside",30
811,"51.505703","-0.027773","Westferry Circus, Canary Wharf",34
812,"51.548731","-0.022607","Here East North, Queen Elizabeth Olympic Park",27
813,"51.487807","-0.12276","New Spring Gardens Walk, Vauxhall",36
814,"51.471433","-0.123671","Clapham Road, Lingham Street, Stockwell",29
815,"51.500089","-0.116629","Lambeth Palace Road, Waterloo",33
816,"51.546533","-0.020598","Here East South, Queen Elizabeth Olympic Park",28
817,"51.481335","-0.138212","Riverlight South, Nine Elms",25
818,"51.501513","-0.123823","Westminster Pier, Westminster",27
819,"51.50621","-0.114842","Belvedere Road 2, South Bank",38
82,"51.514274","-0.111257","Chancery Lane, Holborn",14
820,"51.492807","-0.091938","Victory Place, Walworth",24
821,"51.483507","-0.147715","Battersea Power Station, Battersea Park",27
826,"51.496863","-0.142943","Allington Street, Victoria",28
827,"51.479601","-0.111472","Cranmer Road, Stockwell",22
828,"51.473874","-0.112581","Normandy Road, Stockwell",29
829,"51.469217","-0.112687","Wynne Road, Stockwell",25
83,"51.509639","-0.131511","Panton Street, West End",20
830,"51.469202","-0.119023","Sidney Road, Stockwell",27
831,"51.466232","-0.11318","St John's Crescent, Brixton",25
832,"51.464019","-0.115782","Ferndale Road, Brixton",30
833,"51.460232","-0.115375","Saltoun Road, Brixton",42
834,"51.477966","-0.147857","Gas Holders, Battersea Park",26
835,"51.516785","-0.104948","Farringdon Street, Holborn",24
836,"51.541596","-0.125441","York Way, Kings Cross",24
838,"51.518093","-0.091402","Fore Street Avenue, Guildhall",24
839,"51.508033","-0.106824","Sea Containers, South Bank",28
84,"51.515937","-0.111778","Breams Buildings, Holborn",25
85,"51.500647","-0.0786","Tanner Street, Bermondsey",38
86,"51.489479","-0.115157","Sancroft Street, Vauxhall",24
87,"51.516468","-0.079685","Devonshire Square, Liverpool Street",16
88,"51.518588","-0.132053","Bayley Street , Bloomsbury",24
89,"51.52625","-0.12351","Tavistock Place, Bloomsbury",19
9,"51.507385","-0.096441","New Globe Walk, Bankside",19
90,"51.533019","-0.139175","Harrington Square 1, Camden Town",27
91,"51.493686","-0.111015","Walnut Tree Walk, Vauxhall",19
92,"51.498898","-0.100441","Borough Road, Elephant & Castle",41
93,"51.534409","-0.109025","Cloudesley Road, Angel",36
94,"51.495061","-0.085814","Bricklayers Arms, Borough",28
95,"51.520842","-0.09734","Aldersgate Street, Barbican",15
96,"51.530951","-0.078505","Falkirk Street, Hoxton",26
97,"51.497925","-0.183835","Gloucester Road (North), Kensington",17
98,"51.525542","-0.138231","Hampstead Road, Euston",53
99,"51.514578","-0.158264","Old Quebec Street, Marylebone",16
